 Catalog Listing,website,Category ORGANIZATION  serves,Address,City,State,Zip,Lat,Long
Natick Historical Society,www.natickhistoricalsociety.org; www.facebook.com/natickhistoricalsociety; info@natickhistoricalsociety.org,Historic or Cultural Heritage,58 Eliot St,Natick,MA,01760,42.2722016,-71.3161492
Common Street Spiritual Center,www.commonstreet.org,Literary Arts,13 Common Street,Natick,MA,01760,42.2825676,71.3465408
NAOS - Natick Artists Open Studios,natickopenstudios.org,Visual Arts/Crafts/Design,43 Main St,Natick,MA,01760,42.2849124,-71.347794
The Watercolor Connection,WatercolorConnection.com,Visual Arts/Crafts/Design,6 Deerfield Lane,Natick,MA,01760,42.2951352,-71.3465744
New England Light Painters,wordpress.nelightpainters.org,Visual Arts/Crafts/Design,17 Fox Hill Drive,Natick,MA,01760,42.314143,-71.327642
Natick Farmers & Winter Markets,www.Natickcenter.org,Natural Heritage,20 Main St.,Natick,MA,01760,42.2847912,-71.3472123
